     3.03           OBSERVATION DATA    M                   RINEX VERSION / TYPE
GnssLogger          Blackview 10        20201213 121501 UTC PGM / RUN BY / DATE
Google GnssLogger                                           MARKER NAME
G    4 C1I L1I D1I S1I                                      SYS / # / OBS TYPES
R    4 C1I L1I D1I S1I                                      SYS / # / OBS TYPES
C    4 C2I L2I D2I S2I                                      SYS / # / OBS TYPES
  2020    12    13    12    15   01.0000000     GPS         TIME OF FIRST OBS
 7 R04  6 R05  1 R06 -4 R14 -7 R15  0 R16 -1 R21  4         GLONASS SLOT / FRQ #
                                                            END OF HEADER
> 2020 12 13 12 15 01.8034562  0 11                      
G02                      2220.29315     -2601.56215        34.00015
G05                      -954.70415       365.18415        34.00015
G07                      4824.65114     -2168.29514        29.00014
G13                     -5309.32914      2439.57414        29.00014
G15                     -2985.69415      3486.98915        32.00015
G30                      1088.36616      -680.68616        36.00016
R05                     -3489.89116      1371.72216        37.00016
R14                      1859.96916     -2509.66816        36.00016
R15                     -4026.38816      1648.80616        38.00016
R21                      1050.81916     -2025.30116        37.00016
C26                     -5911.93915      2552.50315        33.00015
> 2020 12 13 12 15 02.8059924  0 14                      
G02                      4826.91115     -2612.67315        35.00015
G05                     -1315.14315       357.48715        33.00015
G07                      6996.73614     -2173.12014        29.00014
G13                     -7745.19914      2429.72514        25.00014
G14                     -6218.47213      2768.02813        22.00013
G15                     -6473.17515      3488.01715        33.00015
G30                      1772.96915      -687.83615        33.00015
R04                      2429.61914     -2230.64814        24.00014
R05                     -4808.38514      1367.24014        28.00014
R06                     -4132.40314      3965.13814        26.00014
R14                      4414.08515     -2514.51115        31.00015
R15                     -5623.59715      1644.42515        32.00015
R21                      3137.18016     -2039.84116        39.00016
C26                     -8487.29614      2542.67814        26.00014
> 2020 12 13 12 15 03.8079904  0 15                      
G02                      7445.63115     -2624.74515        35.00015
G05                     -1669.67715       351.45415        35.00015
G07                      9172.93216     -2179.52216        36.00016
G13                    -10172.65815      2424.86715        30.00015
G14                     -8986.20213      2766.72013        23.00013
G15                     -9958.25814      3482.05514        29.00014
G30                      2463.83915      -694.20615        30.00015
R04                      4724.78815     -2246.63015        33.00015
R05                     -6123.02315      1360.66515        30.00015
R06                     -8036.06314      3939.24614        29.00014
R14                      6971.44515     -2519.33915        31.00015
R15                     -7216.00515      1637.63315        35.00015
R16                     -9052.92413      4449.15213        23.00013
R21                      5232.84214     -2046.67714        28.00014
C26                    -11053.28614      2538.56014        27.00014
> 2020 12 13 12 15 04.8089886  0 18                      
G02                     10072.05415     -2625.17115        32.00015
G05                     -2019.13715       348.62415        33.00015
G07                     11354.50216     -2182.95816        36.00016
G13                    -12598.11014      2426.21914        27.00014
G14                    -11751.91114      2765.42314        28.00014
G15                    -13440.11014      3482.90414        29.00014
G30                      3158.54916      -694.98316        37.00016
R04                      7023.58213     -2243.66113        23.00013
R05                     -7433.97516      1359.46616        38.00016
R06                    -11930.34515      3941.37815        30.00015
R14                      9533.12115     -2522.83115        30.00015
R15                     -8804.23416      1634.51816        38.00016
R16                    -13454.68415      4448.93215        30.00015
R21                      7330.70315     -2044.73915        32.00015
C10                     -1123.29815       306.58115        30.00015
C14                     -2526.59414      3016.24014        27.00014
C21                       241.26716      -683.28516        37.00016
C26                    -13617.60615      2539.91815        35.00015
> 2020 12 13 12 15 05.8089867  0 20                      
G02                     12699.71213     -2629.73413        23.00013
G05                     -2365.77415       343.87315        34.00015
G07                     13539.51815     -2187.29415        35.00015
G13                    -15023.44615      2423.35715        35.00015
G14                    -14514.72114      2761.14414        28.00014
G15                    -16920.41114      3476.28214        29.00014
G28                     -3576.97714      2844.81514        26.00014
G30                      3855.07415      -701.10715        30.00015
R04                      9321.43915     -2250.38315        31.00015
R05                     -8744.83015      1354.98515        30.00015
R06                    -15827.37113      3934.75613        23.00013
R14                     12097.31614     -2526.74514        29.00014
R15                    -10390.87415      1629.49415        35.00015
R16                    -17857.70016      4443.43816        36.00016
R21                      9428.11214     -2050.76114        28.00014
C07                       375.29913      -353.34713        23.00013
C10                     -1443.08715       293.96715        33.00015
C14                     -5564.02814      3006.66414        24.00014
C21                       901.99414      -688.91614        29.00014
C26                    -16180.73216      2534.99516        38.00016
> 2020 12 13 12 15 06.8109855  0 20                      
G02                     15334.48815     -2643.26715        31.00015
G05                     -2702.99914       333.15314        29.00014
G07                     15732.27315     -2201.49715        35.00015
G13                    -17439.06915      2407.93915        33.00015
G14                    -17267.41614      2741.98914        27.00014
G15                    -20391.93814      3465.43114        26.00014
G28                     -6414.32913      2834.13813        23.00013
G30                      4561.74114      -714.69014        29.00014
R04                     11629.79914     -2266.34014        26.00014
R05                    -10047.67714      1337.94214        28.00014
R06                    -19710.08214      3916.87414        27.00014
R14                     14669.02614     -2545.05814        28.00014
R15                    -11968.63916      1613.37416        36.00016
R16                    -22249.77514      4429.57714        29.00014
R21                     11532.88014     -2062.96514        29.00014
C07                       710.51013      -363.04513        22.00013
C10                     -1759.59214       287.01314        25.00014
C14                     -8589.29014      2989.54014        27.00014
C21                      1574.06914      -704.42114        28.00014
C26                    -18732.50116      2517.53216        39.00016
> 2020 12 13 12 15 07.8199837  0 20                      
G02                     17986.57915     -2654.72315        32.00015
G05  20682794.10014     -3023.87614       312.34214        28.00014
G07                     17942.93416     -2212.56216        36.00016
G13                    -19836.60615      2397.83115        30.00015
G14  22168126.92514    -20002.37914      2726.86314        26.00014
G15                    -23848.82314      3448.07614        24.00014
G28                     -9235.08313      2812.43413        20.00013
G30                      5284.54815      -726.40415        34.00015
R04                     13955.49316     -2277.53516        38.00016
R05                    -11334.02216      1328.69816        36.00016
R06                    -23584.89313      3913.24313        20.00013
R14                     17259.06315     -2552.58615        31.00015
R15                    -13530.74915      1605.57415        35.00015
R16                    -26633.32916      4424.45716        37.00016
R21                     13653.48815     -2073.29015        30.00015
C07                      1057.96213      -380.47213        20.00013
C10                     -2061.43914       275.55014        26.00014
C14                    -11595.06314      2980.94814        28.00014
C21                      2262.64215      -713.39615        32.00015
C26                    -21267.39316      2509.03316        39.00016
> 2020 12 13 12 15 09.0009816  0 20                      
G02                     21126.35916     -2662.86816        37.00016
G05  20682670.88515     -3396.40415       307.84015        32.00015
G07                     20560.15214     -2215.53214        28.00014
G13                    -22663.48214      2387.67514        29.00014
G14  22167461.68614    -23229.47214      2728.21214        26.00014
G15                    -27920.15214      3439.02614        25.00014
G28                    -12554.87714      2806.54714        26.00014
G30                      6146.01815      -734.13715        32.00015
R04                     16712.88915     -2286.59315        31.00015
R05                    -12845.92614      1323.31014        29.00014
R06                    -28151.51214      3901.68414        25.00014
R14                     20324.09215     -2564.43315        32.00015
R15                    -15367.19816      1592.84916        36.00016
R16                    -31801.49215      4412.54015        34.00015
R21                     16163.30615     -2082.66015        34.00015
C07                      1483.64214      -385.79214        25.00014
C10                     -2410.08713       266.36113        22.00013
C14                    -15140.92414      2972.67014        25.00014
C21                      3085.66114      -727.29814        29.00014
C26                    -24251.88216      2501.66316        40.00016
> 2020 12 13 12 15 10.0009800  0 20                      
G02                     23795.01716     -2678.14616        38.00016
G05  20682614.52414     -3696.69614       297.08714        26.00014
G07                     22787.68916     -2236.55416        37.00016
G13                    -25042.02915      2372.66815        33.00015
G14  22166942.74514    -25950.62214      2711.21614        26.00014
G15                    -31359.59814      3434.89114        24.00014
G28                    -15355.66614      2796.43614        24.00014
G30                      6888.20615      -750.78815        35.00015
R04                     19051.71816     -2302.33816        36.00016
R05                    -14114.66416      1303.64616        36.00016
R06                    -32009.56114      3886.67014        26.00014
R14                     22931.00015     -2579.86415        33.00015
R15                    -16911.17715      1570.86815        31.00015
R16                    -36166.56916      4395.07516        36.00016
R21                     18301.92014     -2097.91714        25.00014
C07                      1854.87013      -399.04713        23.00013
C10                     -2693.74014       250.82414        29.00014
C14                    -18126.59715      2958.28215        31.00015
C21                      3793.24614      -737.37914        29.00014
C26                    -26768.21915      2482.48715        33.00015
> 2020 12 13 12 15 11.0009784  0 20                      
G02                     26478.13215     -2689.12215        32.00015
G05  20682552.46715     -3984.14915       282.34915        32.00015
G07                     25029.54515     -2249.02015        35.00015
G13                    -27406.96114      2362.77914        29.00014
G14  22166422.90513    -28653.70013      2698.81413        21.00013
G15                    -34784.21914      3421.19414        28.00014
G28                    -18144.07414      2786.33514        26.00014
G30                      7646.05715      -760.26215        31.00015
R04                     21408.18415     -2312.77215        35.00015
R05                    -15369.75214      1294.69314        28.00014
R06                    -35851.82014      3875.12514        29.00014
R14                     25550.02016     -2591.75316        38.00016
R15                    -18439.92116      1570.30616        36.00016
R16                    -40515.93615      4385.92515        32.00015
R21                     20455.97115     -2118.17215        32.00015
C07                      2237.34813      -410.59513        20.00013
C10                     -2963.48213       243.52013        23.00013
C14                    -21101.77214      2946.89714        29.00014
C21                      4514.65816      -748.19516        37.00016
C26                    -29269.94916      2474.30116        38.00016
> 2020 12 13 12 15 12.0009768  0 20                      
G02                     29164.82814     -2691.29214        24.00014
G05  20682493.40814     -4266.96314       282.21714        27.00014
G07                     27275.13415     -2247.08715        30.00015
G13                    -29767.08115      2361.83515        34.00015
G14  22165903.06515    -31355.26015      2695.66115        31.00015
G15                    -38203.30314      3415.85014        26.00014
G28                    -20927.82014      2778.39114        29.00014
G30                      8404.22314      -760.15314        26.00014
R04                     23768.84715     -2312.62915        34.00015
R05                    -16617.82315      1291.28615        34.00015
R06                    -39689.00514      3873.82914        28.00014
R14                     28176.10315     -2591.38515        33.00015
R15                    -19965.12516      1565.98016        36.00016
R16                    -44861.79615      4385.42515        32.00015
R21                     22616.09615     -2111.88215        30.00015
C07                      2627.42013      -417.44913        19.00013
C10                     -3232.93714       244.39114        26.00014
C14                    -24072.93214      2948.36514        29.00014
C21                      5242.71215      -754.02615        35.00015
C26                    -31767.89814      2478.21314        27.00014
> 2020 12 13 12 15 13.0009751  0 20                      
G02                     31856.94413     -2689.24413        22.00013
G05  20682435.24815     -4548.55315       285.33515        32.00015
G07                     29520.94915     -2245.16115        32.00015
G13                    -32129.66015      2365.11615        35.00015
G14  22165384.42414    -34052.79914      2703.05814        26.00014
G15                    -41622.51215      3422.97115        31.00015
G28                    -23708.97514      2786.94314        29.00014
G30                      9167.41115      -757.96015        33.00015
R04                     26129.98117     -2312.27917        42.00017
R05                    -17867.55414      1296.53614        28.00014
R06                    -43528.96813      3881.20813        22.00013
R14                     30801.91816     -2589.61316        38.00016
R15                    -21489.59116      1569.54316        36.00016
R16                    -49202.09715      4389.57815        33.00015
R21                     24777.37614     -2119.21014        27.00014
C07                      3018.61113      -407.93013        21.00013
C10                     -3498.73114       240.78714        24.00014
C14                    -27043.49214      2949.69414        27.00014
C21                      5970.22516      -747.50516        38.00016
C26                    -34266.99716      2477.01016        38.00016
